DossierCommune;DossierDateCreation;DossierNom;DossierOperateur;DossierParcelle;DossierPointX;DossierPointY;DossierPresenceEtablissment;DossierQuartier;DossierRueNo;DossierRueNom;PieceId;PieceType;PieceUrl;lat;lon
Brest;2024-04-17;DIM-SFR-059;SFR;KR0025;146098;6835697;True;BREST-CENTRE;34;RUE MONGE;390;Dossier de simulation;https://echanges.brest-metropole.fr/VIPOD03/dim/documents/DIM-SFR-059/2910000033_3-4_RAPPORT_MESURE_CEM_20240417_Dossier_de_simulation.pdf;48.384881;-4.49257
Brest;2024-04-17;DIM-SFR-059;SFR;KR0025;146098;6835697;True;BREST-CENTRE;34;RUE MONGE;389;DIM;https://echanges.brest-metropole.fr/VIPOD03/dim/documents/DIM-SFR-059/2910000033_1-9_DIM_20240408_DIM.pdf;48.384881;-4.49257
Brest;2024-04-15;DIM-SFR-058;SFR;BR0228;147217;6836218;True;BREST-CENTRE;53;RUE VICTOR HUGO;386;DIM;https://echanges.brest-metropole.fr/VIPOD03/dim/documents/DIM-SFR-058/2910000060_1-9_DIM_20221124_DIM.pdf;48.3905;-4.47819
Brest;2024-04-15;DIM-SFR-058;SFR;BR0228;147217;6836218;True;BREST-CENTRE;53;RUE VICTOR HUGO;387;Dossier de simulation;https://echanges.brest-metropole.fr/VIPOD03/dim/documents/DIM-SFR-058/2910000060_3-4_RAPPORT_MESURE_CEM_20230908_Dossier_de_simulation.pdf;48.3905;-4.47819
Brest;2024-03-20;DIM-BOUYGUES TELECOM-028;BOUYGUES TELECOM;IW137;146102;6836629;True;BREST-CENTRE;19;RUE BERNARD SCHEIDHAUER;381;DIM;https://echanges.brest-metropole.fr/VIPOD03/dim/documents/DIM-BOUYGUES TELECOM-028/T51738_DIM_V2_DIM.pdf;48.393232;-4.49371
Brest;2024-03-20;DIM-BOUYGUES TELECOM-028;BOUYGUES TELECOM;IW137;146102;6836629;True;BREST-CENTRE;19;RUE BERNARD SCHEIDHAUER;382;Dossier de simulation;https://echanges.brest-metropole.fr/VIPOD03/dim/documents/DIM-BOUYGUES TELECOM-028/T51738_expo_Dossier_de_simulation.pdf;48.393232;-4.49371
Brest;2024-02-05;DIM-BOUYGUES TELECOM-025;BOUYGUES TELECOM;IO0049;149367;6836215;False;SAINT MARC;7;RUE COLONEL BERTHAUD;373;DIM;https://echanges.brest-metropole.fr/VIPOD03/dim/documents/DIM-BOUYGUES TELECOM-025/T51735_DIM_DIM.pdf;48.392299;-4.449273
Guipavas;2024-02-05;DIM-FREE MOBILE-041;FREE MOBILE;OH1564;152034;6841001;False;TOUT GUIPAVAS;0;LDT FORESTIG;371;DIM;https://echanges.brest-metropole.fr/VIPOD03/dim/documents/DIM-FREE MOBILE-041/29075_011_01GUIPAVAS_FORESTIC_ATC_5G_DIM.pdf;48.437421;-4.41947
Brest;2024-01-30;DIM-FREE MOBILE-040;FREE MOBILE;EH0358;;;False;BELLEVUE;0;RTE DE TRAON BIHAN;369;DIM;https://echanges.brest-metropole.fr/VIPOD03/dim/documents/DIM-FREE MOBILE-040/DIM_29019_069_01_BREST_RTE_DIM.pdf;;
Brest;2024-01-23;DIM-BOUYGUES TELECOM-024;BOUYGUES TELECOM;BE204;149849;6836450;True;SAINT MARC;88;RUE KERAMPERE;367;Dossier de simulation;https://echanges.brest-metropole.fr/VIPOD03/dim/documents/DIM-BOUYGUES TELECOM-024/T01979_100394_rappefo_Dossier_de_simulation.pdf;48.394812;-4.443089
Brest;2024-01-23;DIM-BOUYGUES TELECOM-024;BOUYGUES TELECOM;BE204;149849;6836450;True;SAINT MARC;88;RUE KERAMPERE;364;DIM;https://echanges.brest-metropole.fr/VIPOD03/dim/documents/DIM-BOUYGUES TELECOM-024/DIM_T01979_DIM.pdf;48.394812;-4.443089
Brest;2024-01-22;DIM-BOUYGUES TELECOM-022;BOUYGUES TELECOM;BY509;146486;6837188;False;LAMBEZELLEC;8;RUE AUGUSTE KERVERN;359;DIM;https://echanges.brest-metropole.fr/VIPOD03/dim/documents/DIM-BOUYGUES TELECOM-022/T51743_DIM_DIM.pdf;48.398565;-4.489261
Brest;2024-01-10;DIM-FREE MOBILE-039;FREE MOBILE;HO0485;146785;6840185;False;LAMBEZELLEC;4;RUE PAUL HEROULT;357;DIM;https://echanges.brest-metropole.fr/VIPOD03/dim/documents/DIM-FREE MOBILE-039/DIM_29019_050_01HEROULT_BREST_5G_DIM.pdf;48.425662;-4.489074
Brest;2023-11-13;DIM-FREE MOBILE-038;FREE MOBILE;ET0009;144868;6837544;False;BELLEVUE;10;RUE FRANCIS GARNIER;355;DIM;https://echanges.brest-metropole.fr/VIPOD03/dim/documents/DIM-FREE MOBILE-038/DIM_29019_059_03_10_BREST_RUE_GARNIER_DIM.pdf;48.40037155;-4.511477947
Le Relecq-Kerhuon;2023-10-26;DIM-ORANGE-014;ORANGE;AE0849;154067;6837644;True;TOUT LE RELECQ-KERHUON;42;AV GHILINO;352;DIM;https://echanges.brest-metropole.fr/VIPOD03/dim/documents/DIM-ORANGE-014/DIM_00000260Q17-21_V 1_DIM.pdf;48.40906525;-4.387864113
Le Relecq-Kerhuon;2023-10-26;DIM-ORANGE-014;ORANGE;AE0849;154067;6837644;True;TOUT LE RELECQ-KERHUON;42;AV GHILINO;353;Dossier de simulation;https://echanges.brest-metropole.fr/VIPOD03/dim/documents/DIM-ORANGE-014/DS_00000260Q17-21_Dossier_de_simulation.pdf;48.40906525;-4.387864113
Plouzané;2023-10-18;DIM-FREE MOBILE-037;FREE MOBILE;BK0050;;;False;BELLEVUE;0;RTE DU GONIO;350;DIM;https://echanges.brest-metropole.fr/VIPOD03/dim/documents/DIM-FREE MOBILE-037/29212_010_03_DIM_GONIO_PLOUZANE_DIM.pdf;;
Brest;2023-09-28;DIM-FREE MOBILE-036;FREE MOBILE;IZ0141;146757;6836420;True;BREST-CENTRE;7;RUE FREZIER;329;DIM;https://echanges.brest-metropole.fr/VIPOD03/dim/documents/DIM-FREE MOBILE-036/DIM_BREST_29019_055_01_FREZIER_DIM.pdf;48.39191818;-4.484633923
Brest;2023-06-12;DIM-FREE MOBILE-034;FREE MOBILE;CP0086;144796;6835603;True;QUATRE MOULINS;277;RUE ANATOLE FRANCE;323;DIM;https://echanges.brest-metropole.fr/VIPOD03/dim/documents/DIM-FREE MOBILE-034/DIM__29019_078_01_BREST_ANATOLE_FRANCE_DIM.pdf;48.38292694;-4.509955883
Brest;2023-06-12;DIM-FREE MOBILE-033;FREE MOBILE;BZ0678;147238;6837719;False;EUROPE;93;BD MONTAIGNE;321;DIM;https://echanges.brest-metropole.fr/VIPOD03/dim/documents/DIM-FREE MOBILE-033/DIM_29019_056_02_BREST_MONTAIGNE_DIM.pdf;48.40396118;-4.47982502
Le Relecq-Kerhuon;2023-04-17;DIM-BOUYGUES TELECOM-021;BOUYGUES TELECOM;AZ0373;152633;6836967;False;TOUT LE RELECQ-KERHUON;50;RTE DE KERSCAO;319;DIM;https://echanges.brest-metropole.fr/VIPOD03/dim/documents/DIM-BOUYGUES TELECOM-021/T51749_-_C13_V3_DIM.pdf;48.40179443;-4.406299591
Plougastel-Daoulas;2023-04-11;DIM-FREE MOBILE-032;FREE MOBILE;CR0193;156740;6834745;True;TOUT PLOUGASTEL-DAOULAS;85;RUE JACQUES THEZAC;317;DIM;https://echanges.brest-metropole.fr/VIPOD03/dim/documents/DIM-FREE MOBILE-032/DIM_29140_001_06_PLOUGASTEL_TY_AR_MENEZ_DIM.pdf;48.38533783;-4.348260403
Brest;2023-04-11;DIM-FREE MOBILE-031;FREE MOBILE;BL0003;148319;6836935;True;SAINT MARC;8;RUE BOURDELLE;315;DIM;https://echanges.brest-metropole.fr/VIPOD03/dim/documents/DIM-FREE MOBILE-031/DIM_29019_095_01_BREST_BOURDELLE_DIM.pdf;48.39785767;-4.46428442
Brest;2023-04-05;DIM-FREE MOBILE-030;FREE MOBILE;IN0015;148815;6838608;True;EUROPE;15;RUE DE L'EAU BLANCHE;313;DIM;https://echanges.brest-metropole.fr/VIPOD03/dim/documents/DIM-FREE MOBILE-030/DIM29075_019_02_EAUBLANCHE_DIM.pdf;48.41326523;-4.459745407
Brest;2023-04-03;DIM-FREE MOBILE-029;FREE MOBILE;IN0189;148374;6839106;True;EUROPE;4;RUE COMMANDANT YVES MINDREN;311;DIM;https://echanges.brest-metropole.fr/VIPOD03/dim/documents/DIM-FREE MOBILE-029/DIM_29019_081_01_BREST_MINDREN_DIM.pdf;48.41735077;-4.466313839
Brest;2023-04-03;DIM-FREE MOBILE-028;FREE MOBILE;IN0260;148649;6838931;True;EUROPE;26;RUE DE L'EAU BLANCHE;309;DIM;https://echanges.brest-metropole.fr/VIPOD03/dim/documents/DIM-FREE MOBILE-028/DIM_29075_019_03_BREST_EAU_BLANCHE_DIM.pdf;48.41601563;-4.4623909
Guipavas;2023-04-03;DIM-FREE MOBILE-027;FREE MOBILE;BR0031;150221;6840520;True;TOUT GUIPAVAS;17;RUE HENRI BECQUEREL;307;DIM;https://echanges.brest-metropole.fr/VIPOD03/dim/documents/DIM-FREE MOBILE-027/DIM_29075_018_01_GUIPAVAS_BECQUEREL_DIM.pdf;48.43157959;-4.443261623
Brest;2023-03-31;DIM-FREE MOBILE-026;FREE MOBILE;ET0031;145022;6837601;True;BELLEVUE;10;RUE DU DUC D'AUMALE;305;DIM;https://echanges.brest-metropole.fr/VIPOD03/dim/documents/DIM-FREE MOBILE-026/DIM_29019_059_02_BREST_DUC_D'AUMALE_DIM.pdf;48.40101624;-4.50948
Brest;2023-03-31;DIM-FREE MOBILE-025;FREE MOBILE;CR0119;144885;6835080;False;QUATRE MOULINS;4;RTE DE LA CORNICHE;303;DIM;https://echanges.brest-metropole.fr/VIPOD03/dim/documents/DIM-FREE MOBILE-025/DIM_29019_094_01_BREST_Corniche_DIM.pdf;48.37831879;-4.508088589
Plouzané;2023-03-07;DIM-FREE MOBILE-024;FREE MOBILE;AO009;137044;6837334;False;TOUT PLOUZANE;0;LDT LE MOGUER;301;DIM;https://echanges.brest-metropole.fr/VIPOD03/dim/documents/DIM-FREE MOBILE-024/DIM_29212_011_01_PLOUZANE_LE_MOGUER_DIM.pdf;48.39176178;-4.616420269
Brest;2023-03-07;DIM-FREE MOBILE-023;FREE MOBILE;A0515;146685;6841025;False;LAMBEZELLEC;1165;RTE DE ROCH GLAS;299;DIM;https://echanges.brest-metropole.fr/VIPOD03/dim/documents/DIM-FREE MOBILE-023/DIM_29019_068_01_BREST_1165__ROUTE_DE_ROCH_GLAS_DIM.pdf;48.43309784;-4.491495132
Brest;2023-02-16;DIM-SFR-056;SFR;AW0090;149091;6838202;False;SAINT MARC;10;RUE EUGENE DELACROIX;291;DIM;https://echanges.brest-metropole.fr/VIPOD03/dim/documents/DIM-SFR-056/2910000051_1-9_DIM_20230104_DIM.pdf;48.40986252;-4.455514908
Brest;2023-02-10;DIM-BOUYGUES TELECOM-018;BOUYGUES TELECOM;CZ242;143375;6836040;False;SAINT-PIERRE;65;RUE DU VALY-HIR;281;DIM;https://echanges.brest-metropole.fr/VIPOD03/dim/documents/DIM-BOUYGUES TELECOM-018/DIM_T0A649_DIM.pdf;48.38562775;-4.529623032
Brest;2023-02-10;DIM-BOUYGUES TELECOM-016;BOUYGUES TELECOM;AO641;146969;6838832;False;LAMBEZELLEC;2;RUE HENRY DE MONTHERLANT;275;DIM;https://echanges.brest-metropole.fr/VIPOD03/dim/documents/DIM-BOUYGUES TELECOM-016/DIM_T0A64F_DIM.pdf;48.4137001;-4.484866619
Brest;2023-02-08;DIM-ORANGE-012;ORANGE;KR0025;146098;6835697;True;BREST-CENTRE;34;RUE MONGE;297;Dossier de simulation;https://echanges.brest-metropole.fr/VIPOD03/dim/documents/DIM-ORANGE-012/DS_BREST_PONT_RECOUVRANCE_NEW_22541Q1_Dossier_de_simulation.pdf;48.38488007;-4.4925704
Brest;2023-02-08;DIM-ORANGE-012;ORANGE;KR0025;146098;6835697;True;BREST-CENTRE;34;RUE MONGE;271;DIM;https://echanges.brest-metropole.fr/VIPOD03/dim/documents/DIM-ORANGE-012/DIM_BREST_PONT_RECOUVRANCE_NEW_22541Q1_DIM.pdf;48.38488007;-4.4925704
Plouzané;2022-12-28;DIM-ORANGE-011;ORANGE;AR0083;136611;6836260;False;TOUT PLOUZANE;1;RTE DE LA TRINITE;267;DIM;https://echanges.brest-metropole.fr/VIPOD03/dim/documents/DIM-ORANGE-011/DIM_PLOUZANE_KROAZ_TEO_32540Q1_DIM.pdf;48.38176727;-4.620843887
Brest;2022-12-21;DIM-SFR-053;SFR;AD128;145728;6837896;True;BELLEVUE;48;RUE DE KERMENGUY;263;Dossier de simulation;https://echanges.brest-metropole.fr/VIPOD03/dim/documents/DIM-SFR-053/Rapport_Simulation_SFR_2910000041_5G_Dossier_de_simulation.pdf;48.40425873;-4.500362396
Brest;2022-12-21;DIM-SFR-053;SFR;AD128;145728;6837896;True;BELLEVUE;48;RUE DE KERMENGUY;262;DIM;https://echanges.brest-metropole.fr/VIPOD03/dim/documents/DIM-SFR-053/2910000041_1-9_DIM_20221206_DIM.pdf;48.40425873;-4.500362396
Brest;2022-12-21;DIM-FREE MOBILE-021;FREE MOBILE;HL0519;145712;6840130;False;LAMBEZELLEC;165;RUE LOUIS HAREL DE LA NOE;255;DIM;https://echanges.brest-metropole.fr/VIPOD03/dim/documents/DIM-FREE MOBILE-021/DIM_29019_067_01_BREST_HAREL_DE_LA_NOE_DIM.pdf;48.42425537;-4.503441334
Gouesnou;2022-12-20;DIM-FREE MOBILE-020;FREE MOBILE;AE0032;147979;6842489;False;TOUT GOUESNOU;0;LDT KERLEO;253;DIM;https://echanges.brest-metropole.fr/VIPOD03/dim/documents/DIM-FREE MOBILE-020/DIM_29061_006_01_GOUESNOU_Kerleo_DIM.pdf;48.4473114;-4.475950718
Guilers;2022-12-14;DIM-FREE MOBILE-019;FREE MOBILE;BP0042;142734;6840087;False;TOUT GUILERS;0;LDT COAT TY OGANT;251;DIM;https://echanges.brest-metropole.fr/VIPOD03/dim/documents/DIM-FREE MOBILE-019/DIM29069_002_01GUILERS_DIM.pdf;48.42132187;-4.543455601
Gouesnou;2022-12-14;DIM-FREE MOBILE-018;FREE MOBILE;AR0054;149251;6841949;False;TOUT GOUESNOU;70;RUE DE MESCADIOU;249;DIM;https://echanges.brest-metropole.fr/VIPOD03/dim/documents/DIM-FREE MOBILE-018/DIM29061_007_01GOUESNOU_DIM.pdf;48.44355774;-4.458137989
Plouzané;2022-11-04;DIM-BOUYGUES TELECOM-014;BOUYGUES TELECOM;CA0280;139799;6835578;False;TOUT PLOUZANE;0;LDT TRENENN;241;DIM;https://echanges.brest-metropole.fr/VIPOD03/dim/documents/DIM-BOUYGUES TELECOM-014/DIM_T51730__DIM.pdf;48.37841415;-4.577103138
Gouesnou;2022-10-27;DIM-SFR-051;SFR;AE0032;147979;6842489;False;TOUT GOUESNOU;0;LDT KERLEO;242;DIM;https://echanges.brest-metropole.fr/VIPOD03/dim/documents/DIM-SFR-051/2910000031_1-9_DIM_20221026_DIM.pdf;48.4473114;-4.475950718
Plougastel-Daoulas;2022-10-26;DIM-ORANGE-010;ORANGE;CI295;155449;6834419;False;TOUT PLOUGASTEL-DAOULAS;78;RUE DU PERE GWENAEL;237;DIM;https://echanges.brest-metropole.fr/VIPOD03/dim/documents/DIM-ORANGE-010/Dossier_d'information_du_site_00006405Q17-21_DIM.pdf;48.38133621;-4.365211487
Bohars;2022-10-25;DIM-ORANGE-008;ORANGE;OA1571;144838;6840748;False;TOUT BOHARS;1;RUE DE BOHARS AR COAT;233;DIM;https://echanges.brest-metropole.fr/VIPOD03/dim/documents/DIM-ORANGE-008/Dossier_d'information_du_site_00003083Q17-22_DIM.pdf;48.42904282;-4.515995502
Brest;2022-09-23;DIM-SFR-050;SFR;ET0009;144868;6837544;False;BELLEVUE;10;RUE FRANCIS GARNIER;230;DIM;https://echanges.brest-metropole.fr/VIPOD03/dim/documents/DIM-SFR-050/2910000027_1-9_DIM_20220920_DIM.pdf;48.40037155;-4.511477947
Guipavas;2022-09-05;DIM-BOUYGUES TELECOM-013;BOUYGUES TELECOM;CB0108;153336;6840571;False;TOUT GUIPAVAS;9;RUE DE PARIS;231;DIM;https://echanges.brest-metropole.fr/VIPOD03/dim/documents/DIM-BOUYGUES TELECOM-013/DIM_T51751_DIM.pdf;48.43466568;-4.401400566
Guipavas;2022-09-05;DIM-BOUYGUES TELECOM-013;BOUYGUES TELECOM;CB0108;153336;6840571;False;TOUT GUIPAVAS;9;RUE DE PARIS;228;Dossier de simulation;https://echanges.brest-metropole.fr/VIPOD03/dim/documents/DIM-BOUYGUES TELECOM-013/T51751_Dossier_de_simulation.pdf;48.43466568;-4.401400566
Guipavas;2022-09-02;DIM-ORANGE-007;ORANGE;BO0066;158181;6838007;False;TOUT GUIPAVAS;0;LDT KERADRAOÑ;225;DIM;https://echanges.brest-metropole.fr/VIPOD03/dim/documents/DIM-ORANGE-007/Dossier_information_Mairie_-_La_Forest_Landerneau_34742Q1_DIM.pdf;48.41576004;-4.332966805
Brest;2022-08-09;DIM-FREE MOBILE-017;FREE MOBILE;BR0386;147217;6836218;True;BREST-CENTRE;53;RUE VICTOR HUGO;221;DIM;https://echanges.brest-metropole.fr/VIPOD03/dim/documents/DIM-FREE MOBILE-017/DIM_29019_028_02_VICTOR_HUGO_DIM.pdf;48.39049911;-4.478189945
Brest;2022-08-08;DIM-FREE MOBILE-016;FREE MOBILE;AC0061;145222;6837987;True;BELLEVUE;17;PL NAPOLEON III;219;DIM;https://echanges.brest-metropole.fr/VIPOD03/dim/documents/DIM-FREE MOBILE-016/DIM29019_063_01_BREST_NAPOLEON_(2)_DIM.pdf;48.40464401;-4.507285118
Le Relecq-Kerhuon;2022-07-29;DIM-SFR-049;SFR;AW0377;151652;6837012;False;TOUT LE RELECQ-KERHUON;1;RUE ALFRED DE MUSSET;217;DIM;https://echanges.brest-metropole.fr/VIPOD03/dim/documents/DIM-SFR-049/2910000039_1-9_DIM_20220728_DIM.pdf;48.401371;-4.419552326
Brest;2022-07-28;DIM-FREE MOBILE-015;FREE MOBILE;IZ0134;146821;6836398;True;BREST-CENTRE;18;RUE JEAN JAURES;215;DIM;https://echanges.brest-metropole.fr/VIPOD03/dim/documents/DIM-FREE MOBILE-015/29019_055_02_18_22_JAURES_BREST_DIM.pdf;48.39177704;-4.483745098
Brest;2022-04-19;DIM-SFR-048;SFR;EZ0090;145838;6839517;False;LAMBEZELLEC;15;RUE PIERRE-MARIE TOUBOULIC;207;DIM;https://echanges.brest-metropole.fr/VIPOD03/dim/documents/DIM-SFR-048/2910000032_1-9_DIM_20220405_DIM.pdf;48.41887283;-4.50096035
Guipavas;2022-04-19;DIM-SFR-047;SFR;D1091;155404;6837805;False;TOUT GUIPAVAS;0;LDT KERARC'HALED;205;DIM;https://echanges.brest-metropole.fr/VIPOD03/dim/documents/DIM-SFR-047/2910000057_1-9_DIM_20220408_DIM.pdf;48.41162872;-4.370078564
Plouzané;2022-04-19;DIM-SFR-046;SFR;BX0100;139435;6834637;False;TOUT PLOUZANE;223;RUE DES IRIS;203;DIM;https://echanges.brest-metropole.fr/VIPOD03/dim/documents/DIM-SFR-046/2910000035_1-9_DIM_20220413_DIM.pdf;48.36967468;-4.580778122
Brest;2022-04-19;DIM-SFR-045;SFR;HV0439;147249;6839748;False;LAMBEZELLEC;29;RUE DE KERALLAN;201;DIM;https://echanges.brest-metropole.fr/VIPOD03/dim/documents/DIM-SFR-045/2910000030_1-9_DIM_20220414_DIM.pdf;48.42214203;-4.482271194
Brest;2022-04-11;DIM-FREE MOBILE-013;FREE MOBILE;KZ0040;143495;6837534;False;SAINT-PIERRE;220;RUE FRANCIS THOMAS;199;DIM;https://echanges.brest-metropole.fr/VIPOD03/dim/documents/DIM-FREE MOBILE-013/DIM_5G_29019_036_02_BREST_THOMAS_DIM.pdf;48.39910889;-4.529931068
Brest;2022-04-11;DIM-FREE MOBILE-011;FREE MOBILE;BV0425;147851;6837237;True;BREST-CENTRE;234;RUE JEAN JAURES;195;DIM;https://echanges.brest-metropole.fr/VIPOD03/dim/documents/DIM-FREE MOBILE-011/DIM_29019_064_01KERFAUTRAS_RUE_JEAN_JAURES_DIM.pdf;48.40016556;-4.470964432
Brest;2022-03-15;DIM-FREE MOBILE-010;FREE MOBILE;IL0357;149007;6839575;False;EUROPE;8;RUE FERDINAND DE LESSEPS;193;DIM;https://echanges.brest-metropole.fr/VIPOD03/dim/documents/DIM-FREE MOBILE-010/29019_038_01BREST_FERDINAND_DE_LESSEPS_DIM_5G_(1)_DIM.pdf;48.42208862;-4.458395004
Brest;2022-02-28;DIM-SFR-044;SFR;ET0009;144868;6837544;False;BELLEVUE;10;RUE FRANCIS GARNIER;191;DIM;https://echanges.brest-metropole.fr/VIPOD03/dim/documents/DIM-SFR-044/2910000027_BREST_DIM_15_09_2021_(1)_DIM.pdf;48.40037155;-4.511477947
Brest;2022-02-28;DIM-SFR-043;SFR;CN365;145611;6835824;False;QUATRE MOULINS;26;RUE BORDA;189;DIM;https://echanges.brest-metropole.fr/VIPOD03/dim/documents/DIM-SFR-043/2910000059-1-9_DIM_19_10_2021_DIM.pdf;48.38560486;-4.499281406
Le Relecq-Kerhuon;2022-02-15;DIM-FREE MOBILE-009;FREE MOBILE;AW0596;151730;6836974;False;TOUT LE RELECQ-KERHUON;0;LDT SAINTE BARBE;187;DIM;https://echanges.brest-metropole.fr/VIPOD03/dim/documents/DIM-FREE MOBILE-009/DIM29235_005_02Le_Relecq_Kerhuon_DIM.pdf;48.40109634;-4.418454647
Plougastel-Daoulas;2022-02-14;DIM-FREE MOBILE-008;FREE MOBILE;CR0328;156971;6835103;False;TOUT PLOUGASTEL-DAOULAS;797;RTE DE LANDERNEAU;185;DIM;https://echanges.brest-metropole.fr/VIPOD03/dim/documents/DIM-FREE MOBILE-008/PLOUGASTELDAOULAS_DIM.pdf;48.38873672;-4.345602989
Brest;2022-02-01;DIM-FREE MOBILE-007;FREE MOBILE;CO458;144655;6835645;True;QUATRE MOULINS;5;RUE DE LA FREGATE LAPLACE;183;DIM;https://echanges.brest-metropole.fr/VIPOD03/dim/documents/DIM-FREE MOBILE-007/29019_001_02BRESTLAPLACE5G_FEV22_DIM.pdf;48.38318253;-4.51190567
Brest;2022-02-01;DIM-FREE MOBILE-006;FREE MOBILE;HO0485;146785;6840185;False;LAMBEZELLEC;4;RUE PAUL HEROULT;174;DIM;https://echanges.brest-metropole.fr/VIPOD03/dim/documents/DIM-FREE MOBILE-006/DIMHEROULTFEV_29019_050_01_DIM.pdf;48.42566299;-4.489073753
Brest;2022-01-21;DIM-ORANGE-005;ORANGE;DX0113;142758;6835808;False;SAINT-PIERRE;39;RUE DE KEROURIEN;172;DIM;https://echanges.brest-metropole.fr/VIPOD03/dim/documents/DIM-ORANGE-005/DIM_Valide_BREST_KEROURIEN_DIM.pdf;48.38301849;-4.537620068
Brest;2022-01-12;DIM-FREE MOBILE-005;FREE MOBILE;AR0257;147288;6838210;False;EUROPE;101;RUE JULES LESVEN;170;DIM;https://echanges.brest-metropole.fr/VIPOD03/dim/documents/DIM-FREE MOBILE-005/DIM29019_032_08_KERZU_BREST_JANV2022_DIM.pdf;48.40840149;-4.479780197
Le Relecq-Kerhuon;2021-10-06;DIM-SFR-042;SFR;AX0373;152633;6836967;False;TOUT LE RELECQ-KERHUON;50;RTE DE KERSCAO;136;DIM;https://echanges.brest-metropole.fr/VIPOD03/dim/documents/DIM-SFR-042/2910000036_LE_RELECQ_KERHUON_(DANTON)_DIM_5G_DIM.pdf;48.40179443;-4.406299591
Guipavas;2021-09-28;DIM-BOUYGUES TELECOM-001;BOUYGUES TELECOM;ZI0012;154040;6841989;False;TOUT GUIPAVAS;0;LDT MOULIN NEUF;134;DIM;https://echanges.brest-metropole.fr/VIPOD03/dim/documents/DIM-BOUYGUES TELECOM-001/T00063_DIM_DIM.pdf;48.4479599;-4.393716812
Brest;2021-09-28;DIM-SFR-041;SFR;CY359;143849;6836129;True;QUATRE MOULINS;9;RUE PIERRE MAC ORLAN;132;Dossier de simulation;https://echanges.brest-metropole.fr/VIPOD03/dim/documents/DIM-SFR-041/Rapport_Simulation_SFR_290050_5G_Dossier_de_simulation.pdf;48.38682938;-4.523364067
Brest;2021-09-28;DIM-SFR-041;SFR;CY359;143849;6836129;True;QUATRE MOULINS;9;RUE PIERRE MAC ORLAN;131;DIM;https://echanges.brest-metropole.fr/VIPOD03/dim/documents/DIM-SFR-041/290050__BREST_QUILBIGNON_DIM_5G_DIM.pdf;48.38682938;-4.523364067
Plouzané;2021-09-24;DIM-SFR-040;SFR;AZ0005;137889;6835316;False;TOUT PLOUZANE;28;RTE DE TREMAIDIC;129;DIM;https://echanges.brest-metropole.fr/VIPOD03/dim/documents/DIM-SFR-040/2910000038_PLOUZANE_SUD_DIM_5G_DIM.pdf;48.37442017;-4.602437973
Brest;2021-09-14;DIM-SFR-038;SFR;CD0118;147054;6836885;True;BREST-CENTRE;13;RUE DANTON;121;Dossier de simulation;https://echanges.brest-metropole.fr/VIPOD03/dim/documents/DIM-SFR-038/Rapport_Simulation_SFR_290548_5G_Dossier_de_simulation.pdf;48.3963356;-4.481234074
Brest;2021-09-14;DIM-SFR-038;SFR;CD0118;147054;6836885;True;BREST-CENTRE;13;RUE DANTON;120;DIM;https://echanges.brest-metropole.fr/VIPOD03/dim/documents/DIM-SFR-038/290548_BREST_ST_MARTIN_DIM_5G_DIM.pdf;48.3963356;-4.481234074
Brest;2021-09-14;DIM-SFR-037;SFR;CO0458;144655;6835645;True;QUATRE MOULINS;5;RUE DE LA FREGATE LAPLACE;117;DIM;https://echanges.brest-metropole.fr/VIPOD03/dim/documents/DIM-SFR-037/290134_BREST_LE_STIFF_DIM_5G_DIM.pdf;48.38318253;-4.51190567
Brest;2021-09-14;DIM-SFR-037;SFR;CO0458;144655;6835645;True;QUATRE MOULINS;5;RUE DE LA FREGATE LAPLACE;118;Dossier de simulation;https://echanges.brest-metropole.fr/VIPOD03/dim/documents/DIM-SFR-037/Rapport_Simulation_SFR_290134_5G_Dossier_de_simulation.pdf;48.38318253;-4.51190567
Brest;2021-09-07;DIM-SFR-035;SFR;KM0101;146864;6836004;True;BREST-CENTRE;4;BD GAMBETTA;112;Dossier de simulation;https://echanges.brest-metropole.fr/VIPOD03/dim/documents/DIM-SFR-035/Rapport_Simulation_SFR_291339_5G_Dossier_de_simulation.pdf;48.38828278;-4.482663155
Brest;2021-09-07;DIM-SFR-035;SFR;KM0101;146864;6836004;True;BREST-CENTRE;4;BD GAMBETTA;111;DIM;https://echanges.brest-metropole.fr/VIPOD03/dim/documents/DIM-SFR-035/291339_BREST_DAJOT_BIS_DIM_5G_DIM.pdf;48.38828278;-4.482663155
Brest;2021-09-06;DIM-SFR-034;SFR;BV0103;148075;6837599;True;EUROPE;32;RUE DU VERCORS;109;Dossier de simulation;https://echanges.brest-metropole.fr/VIPOD03/dim/documents/DIM-SFR-034/Rapport_Simulation_SFR_290133_5G_Dossier_de_simulation.pdf;48.40359879;-4.468413353
Brest;2021-09-06;DIM-SFR-034;SFR;BV0103;148075;6837599;True;EUROPE;32;RUE DU VERCORS;108;DIM;https://echanges.brest-metropole.fr/VIPOD03/dim/documents/DIM-SFR-034/290133_BREST_STRASBOURG_TDF_DIM_5G_DIM.pdf;48.40359879;-4.468413353
Brest;2021-09-06;DIM-SFR-033;SFR;CN0597;145227;6836518;True;QUATRE MOULINS;95;RUE GENERAL GALLIENI;106;Dossier de simulation;https://echanges.brest-metropole.fr/VIPOD03/dim/documents/DIM-SFR-033/Rapport_simulation_exposition_SFR_290073_5G_Dossier_de_simulation.pdf;48.39149094;-4.5053339
Brest;2021-09-06;DIM-SFR-033;SFR;CN0597;145227;6836518;True;QUATRE MOULINS;95;RUE GENERAL GALLIENI;105;DIM;https://echanges.brest-metropole.fr/VIPOD03/dim/documents/DIM-SFR-033/290073_BREST_L'HARTELOIRE_DIM_5G_DIM.pdf;48.39149094;-4.5053339
Brest;2021-09-06;DIM-SFR-032;SFR;CI0219;146912;6837040;True;BREST-CENTRE;4;PL JEAN PRIGENT;103;Dossier de simulation;https://echanges.brest-metropole.fr/VIPOD03/dim/documents/DIM-SFR-032/Rapport_simulation_exposition_SFR_290017_5G_Dossier_de_simulation.pdf;48.39760208;-4.483342171
Brest;2021-09-06;DIM-SFR-032;SFR;CI0219;146912;6837040;True;BREST-CENTRE;4;PL JEAN PRIGENT;102;DIM;https://echanges.brest-metropole.fr/VIPOD03/dim/documents/DIM-SFR-032/290017_BREST_CENTRE_DIM_5G_DIM.pdf;48.39760208;-4.483342171
Brest;2021-08-26;DIM-SFR-030;SFR;CP0133;145204;6835517;True;QUATRE MOULINS;13;RUE PIERRE LOTI;95;Dossier de simulation;https://echanges.brest-metropole.fr/VIPOD03/dim/documents/DIM-SFR-030/Rapport_Simulation_SFR_290551_5G_Dossier_de_simulation.pdf;48.38250732;-4.504360199
Brest;2021-08-26;DIM-SFR-030;SFR;CP0133;145204;6835517;True;QUATRE MOULINS;13;RUE PIERRE LOTI;94;DIM;https://echanges.brest-metropole.fr/VIPOD03/dim/documents/DIM-SFR-030/290551_BREST_PENFELD_DIM_5G_DIM.pdf;48.38250732;-4.504360199
Brest;2021-08-25;DIM-SFR-029;SFR;AE0188;146268;6837791;True;LAMBEZELLEC;6;RUE WALDECK ROUSSEAU;92;Dossier de simulation;https://echanges.brest-metropole.fr/VIPOD03/dim/documents/DIM-SFR-029/Rapport_Simulation_SFR_290169_5G_Dossier_de_simulation.pdf;48.40378189;-4.492964268
Brest;2021-08-25;DIM-SFR-029;SFR;AE0188;146268;6837791;True;LAMBEZELLEC;6;RUE WALDECK ROUSSEAU;91;DIM;https://echanges.brest-metropole.fr/VIPOD03/dim/documents/DIM-SFR-029/290169_BREST_LANREDEC_DIM_5G_DIM.pdf;48.40378189;-4.492964268
Brest;2021-08-25;DIM-SFR-028;SFR;IZ0134;146821;6836398;True;BREST-CENTRE;18;RUE JEAN JAURES;89;Dossier de simulation;https://echanges.brest-metropole.fr/VIPOD03/dim/documents/DIM-SFR-028/Rapport_Simulation_SFR_290079_5G_Dossier_de_simulation.pdf;48.39177704;-4.483745098
Brest;2021-08-25;DIM-SFR-028;SFR;IZ0134;146821;6836398;True;BREST-CENTRE;18;RUE JEAN JAURES;88;DIM;https://echanges.brest-metropole.fr/VIPOD03/dim/documents/DIM-SFR-028/290079_BREST_JEAN_JAURES_DIM_5G_DIM.pdf;48.39177704;-4.483745098
Brest;2021-08-23;DIM-ORANGE-004;ORANGE;CN365;145611;6835824;False;QUATRE MOULINS;26;RUE BORDA;86;DIM;https://echanges.brest-metropole.fr/VIPOD03/dim/documents/DIM-ORANGE-004/DIM_-_BREST_BORDA_DIM.pdf;48.38560486;-4.499281406
Brest;2021-08-23;DIM-SFR-027;SFR;AV0251;148566;6837997;True;EUROPE;26;RUE LEON NARDON;83;Dossier de simulation;https://echanges.brest-metropole.fr/VIPOD03/dim/documents/DIM-SFR-027/Rapport_Simulation_SFR_290072_5G__Dossier_de_simulation.pdf;48.40758133;-4.462316513
Brest;2021-08-23;DIM-SFR-027;SFR;AV0251;148566;6837997;True;EUROPE;26;RUE LEON NARDON;82;DIM;https://echanges.brest-metropole.fr/VIPOD03/dim/documents/DIM-SFR-027/290072_BREST_KERGONAN_DIM_5G_DIM.pdf;48.40758133;-4.462316513
Brest;2021-08-23;DIM-SFR-026;SFR;AN0502;146574;6839152;True;LAMBEZELLEC;10;RUE CLAUDE FARRERE;80;Dossier de simulation;https://echanges.brest-metropole.fr/VIPOD03/dim/documents/DIM-SFR-026/Rapport_simulation_exposition_SFR__290007_5G_Dossier_de_simulation.pdf;48.41622925;-4.490590572
Brest;2021-08-23;DIM-SFR-026;SFR;AN0502;146574;6839152;True;LAMBEZELLEC;10;RUE CLAUDE FARRERE;79;DIM;https://echanges.brest-metropole.fr/VIPOD03/dim/documents/DIM-SFR-026/290007_BREST_LAMBEZELLEC_DIM_5G_DIM.pdf;48.41622925;-4.490590572
Guipavas;2021-08-16;DIM-SFR-021;SFR;BA0348;150009;6837819;False;TOUT GUIPAVAS;0;LDT KERMEUR COATAUDON;67;DIM;https://echanges.brest-metropole.fr/VIPOD03/dim/documents/DIM-SFR-021/290049__BREST_STANGALAR_DIM_5G_DIM.pdf;48.40720749;-4.442677975
Brest;2021-08-13;DIM-SFR-015;SFR;AS0530;147694;6838763;False;EUROPE;101;RUE GENERAL PAULET;55;DIM;https://echanges.brest-metropole.fr/VIPOD03/dim/documents/DIM-SFR-015/290168_BREST_KERZU_NORD_DIM_5G_DIM.pdf;48.4137001;-4.4750247
Brest;2021-08-11;DIM-SFR-011;SFR;BD0356;149682;6837091;False;SAINT MARC;1;RUE ALBERT SAMAIN;46;DIM;https://echanges.brest-metropole.fr/VIPOD03/dim/documents/DIM-SFR-011/290544_BREST_KERAMPERE_DIM_5G_DIM.pdf;48.400412;-4.4461
Brest;2021-08-09;DIM-SFR-002;SFR;DL0227;143077;6835219;False;SAINT-PIERRE;21;RUE DE POULEDER;28;DIM;https://echanges.brest-metropole.fr/VIPOD03/dim/documents/DIM-SFR-002/290137_BREST_KERNABAT_DIM_5G_DIM.pdf;48.37801743;-4.532573223
Guilers;2021-08-09;DIM-SFR-001;SFR;B1483;142517;6839843;False;TOUT GUILERS;0;LDT MEZANTELLOU;26;DIM;https://echanges.brest-metropole.fr/VIPOD03/dim/documents/DIM-SFR-001/290093_BREST_KERGONAN_DIM_5G_DIM.pdf;48.41894913;-4.546060085
